[  
   {  
      "id":1,
      "name":"Bệnh viện Quận Liên Chiểu",
      "address":"525 Tôn Đức Thắng, Hòa Khánh Nam, Liên Chiểu, Đà Nẵng, Việt Nam",
      "lat":16.064222,
      "lng":108.155618
   },
   {  
      "id":2,
      "name":"Bệnh viện Giao Thông Vận Tải Đà Nẵng",
      "address":"68 Hoàng Văn Thái, Hòa Khánh Nam, Liên Chiểu, Đà Nẵng, Việt Nam",
      "lat":16.055703,
      "lng":108.162000
   },
   {  
      "id":3,
      "name":"Trạm y tế Phường Hòa Khánh Bắc",
      "address":"174 Âu Cơ, Hòa Khánh Bắc, Liên Chiểu, Đà Nẵng, Việt Nam",
      "lat":16.069824,
      "lng":108.145044
   },
   {  
      "id":4,
      "name":"Trạm Y Tế P. Hòa Minh",
      "address":"408 Tôn Đức Thắng, Hòa Minh, Liên Chiểu, Đà Nẵng, Việt Nam",
      "lat":16.058772,
      "lng":108.165300
   },
   {  
      "id":5,
      "name":"Bệnh viện ung bướu Đà Nẵng",
      "address":"Phùng Hưng, Hòa Minh, Liên Chiểu, Đà Nẵng, Việt Nam",
      "lat":16.071721,
      "lng":108.165558
   },
   {  
      "id":6,
      "name":"Bệnh viện Da Liễu Thành Phố Đà Nẵng",
      "address":"91 Dũng Sĩ Thanh Khê, Thanh Khê Tây, Thanh Khê, Đà Nẵng, Việt Nam",
      "lat":16.073948,
      "lng":108.176201
   },
   {  
      "id":7,
      "name":"Trạm Y tế phường An Khê",
      "address":"161 Trường Chinh, An Khê, Cẩm Lệ, Đà Nẵng, Việt Nam",
      "lat":16.057047,
      "lng":108.180576
   },
   {  
      "id":8,
      "name":"Trung tâm Y tế quận Thanh Khê",
      "address":"K62/, 32 Hà Huy Tập, Hòa Khê, Q. Thanh Khê, Đà Nẵng, Việt Nam",
      "lat":16.063461,
      "lng":108.192074
   },
   {  
      "id":9,
      "name":"Trạm Y Tế Phường Thanh Khê Tây",
      "address":"33 Mẹ Nhu, Thanh Khê Tây, Thanh Khê, Đà Nẵng, Việt Nam",
      "lat":16.066656,
      "lng":108.180834
   },
   {  
      "id":10,
      "name":"Trạm Y tế phường Xuân Hà",
      "address":"434 Trần Cao Vân, Xuân Hà, Q. Thanh Khê, Đà Nẵng, Việt Nam",
      "lat":16.071214,
      "lng":108.198082
   },
   {  
      "id":11,
      "name":"Bệnh viện Đa khoa Bình Dân Đà Nẵng",
      "address":"376 Trần Cao Vân, Xuân Hà, Thanh Khê, Da Nang, Việt Nam",
      "lat":16.071255,
      "lng":108.200185
   },
   {  
      "id":12,
      "name":"Trạm Y tế phường Tân Chính",
      "address":"401 Lê Duẩn, Tân Chính, Thanh Khê, Đà Nẵng, Việt Nam",
      "lat":16.067956,
      "lng":108.208424
   },
   {  
      "id":13,
      "name":"Bệnh viện Quân y C17",
      "address":"02 Nguyễn Hữu Thọ, Hòa Thuận Tây, Hải Châu, Đà Nẵng, Việt Nam",
      "lat":16.054305,
      "lng":108.207609
   },
   {  
      "id":14,
      "name":"Bệnh viện Hoàn Mỹ Đà Nẵng",
      "address":"161 Nguyễn Văn Linh, Thạc Gián, Q. Thanh Khê, Da Nang, Việt Nam",
      "lat":16.059667,
      "lng":108.209926
   },
   {  
      "id":15,
      "name":"Trạm Y tế phường Thạc Gián",
      "address":"247 Lê Duẩn, Thanh Khê, Q. Thanh Khê, Đà Nẵng, Việt Nam",
      "lat":16.069894,
      "lng":108.211171
   },
   {  
      "id":16,
      "name":"Trạm Y tế phường Vĩnh Trung",
      "address":"321 Hùng Vương, Vĩnh Trung, Thanh Khê, Đà Nẵng, Việt Nam",
      "lat":16.066883,
      "lng":108.210956
   },
   {  
      "id":17,
      "name":"Trung tâm Y tế quận Hải Châu - Cơ sở 2",
      "address":"163 Hải Phòng, Thạch Thang, Q. Hải Châu, Đà Nẵng, Việt Nam",
      "lat":16.071914,
      "lng":108.213488
   },
   {  
      "id":18,
      "name":"Trạm Y tế phường Hải Châu 2",
      "address":"564 Ông Ích Khiêm, Hải Châu 2, Q. Hải Châu, Đà Nẵng, Việt Nam",
      "lat":16.063584,
      "lng":108.215548
   },
   {  
      "id":19,
      "name":"Trạm Y tế phường Nam Dương",
      "address":"439 Ông Ích Khiêm, Hải Châu, Q. Hải Châu, Đà Nẵng, Việt Nam",
      "lat":16.062058,
      "lng":108.216321
   },
   {  
      "id":20,
      "name":"Bệnh Viện Phụ Nữ TP. Đà Nẵng",
      "address":"26C Chu Văn An, Bình Hiên, Hải Châu, Đà Nẵng 0511, Việt Nam",
      "lat":16.057151,
      "lng":108.217780
   },
   {  
      "id":21,
      "name":"Bệnh viện Y học Cổ truyền thành phố Đà Nẵng",
      "address":"Trần Thủ Độ, Khuê Trung, Đà Nẵng, Khuê Trung Cẩm Lệ Đà Nẵng, Việt Nam",
      "lat":16.024568,
      "lng":108.214776
   },
   {  
      "id":22,
      "name":"Bệnh viện Mắt",
      "address":"68 Phan Đăng Lưu, Hải Châu, Đà Nẵng, Việt Nam",
      "lat":16.037354,
      "lng":108.219668
   },
   {  
      "id":23,
      "name":"Trạm Y Tế Phường Hoà Thọ Đông",
      "address":"Trần Ngọc Sương, Cẩm Lệ, Đà Nẵng, Việt Nam",
      "lat":16.006120,
      "lng":108.192024
   },
   {  
      "id":24,
      "name":"Trạm Y Tế Phường Hòa Thọ Tây",
      "address":"Đường số 3, Hòa Thọ Tây, Cẩm Lệ, Đà Nẵng, Việt Nam",
      "lat":16.000230,
      "lng":108.183264
   },
   {  
      "id":25,
      "name":"Đội Y Tế Dự Phòng Quận Cẩm Lệ",
      "address":"103 Nguyễn Nhàn, Cẩm Lệ, Đà Nẵng, Việt Nam",
      "lat":16.010858,
      "lng":108.195435
   },
   {  
      "id":26,
      "name":"Bệnh viện Đa Khoa quận Cẩm Lệ",
      "address":"Nguyễn Nhàn, Cẩm Lệ, Đà Nẵng, Việt Nam",
      "lat":16.009983,
      "lng":108.195303
   },
   {  
      "id":27,
      "name":"Trạm Y tế phường Hòa Cường Nam",
      "address":"499 Núi Thành, Hải Châu, Q. Hải Châu, Đà Nẵng, Việt Nam",
      "lat":16.034007,
      "lng":108.222690
   },
   {  
      "id":28,
      "name":"Trạm Y Tế Phường Khuê Mỹ",
      "address":"K 20, Khuê Mỹ, Ngũ Hành Sơn, Đà Nẵng, Việt Nam",
      "lat":16.024478,
      "lng":108.248181
   },
   {  
      "id":29,
      "name":"Trung tâm pháp y thành phố Đà Nẵng",
      "address":"2 Yersin, Khuê Mỹ, Ngũ Hành Sơn, Đà Nẵng, Việt Nam",
      "lat":16.021348,
      "lng":108.249862
   },
   {  
      "id":30,
      "name":"Trung Tâm Y Tế Quận Ngũ Hành Sơn",
      "address":"Đường Lê Văn Hiến, Phường Khuê Mỹ, Quận Ngũ Hành Sơn, Khuê Mỹ, Ngũ Hành Sơn, Đà Nẵng, Việt Nam",
      "lat":16.021348,
      "lng":108.252699
   },
   {  
      "id":31,
      "name":"Trung tâm Y tế quận Ngũ Hành Sơn",
      "address":"582 Lê Văn Hiến, Hòa Hải, Ngũ Hành Sơn, Đà Nẵng, Việt Nam",
      "lat":16.008523,
      "lng":108.257742
   },
   {  
      "id":32,
      "name":"Trạm Y Tế Phường Hoà Hải",
      "address":"Tây Sơn, Hòa Hải, Ngũ Hành Sơn, Đà Nẵng, Việt Nam",
      "lat":15.993475,
      "lng":108.257006
   },
   {  
      "id":33,
      "name":"Bệnh viện Phụ sản-Nhi Đà Nẵng",
      "address":"402 Lê Văn Hiến, Khuê Mỹ, Ngũ Hành Sơn, Đà Nẵng, Việt Nam",
      "lat":16.022860,
      "lng":108.249755
   },
   {  
      "id":34,
      "name":"Bệnh viện Mắt",
      "address":"68 Phan Đăng Lưu, Hải Châu, Đà Nẵng, Việt Nam",
      "lat":16.037069,
      "lng":108.219667
   },
   {  
      "id":35,
      "name":"Bệnh viện Phục hồi Chức năng Đà Nẵng",
      "address":"Tổ 26, Võ Nguyên Giáp, Mỹ An, Ngũ Hành Sơn, Đà Nẵng, Việt Nam",
      "lat":16.045998,
      "lng":108.248849
   },
   {  
      "id":36,
      "name":"Trung tâm Y tế quận Sơn Trà",
      "address":"1118 Ngô Quyền, An Hải Tây, Sơn Trà, Đà Nẵng, Việt Nam",
      "lat":16.058357,
      "lng":108.235088
   },
   {  
      "id":37,
      "name":"Bệnh viện 199 - Bộ Công An",
      "address":"216 Nguyễn Công Trứ, An Hải Đông, Sơn Trà, Đà Nẵng, Việt Nam",
      "lat":16.066182,
      "lng":108.236218
   },
   {  
      "id":38,
      "name":"Trạm Y tế phường Thạch Thang",
      "address":"8 Nguyễn Thị Minh Khai, Thạch Thang, Hải Châu, Đà Nẵng, Việt Nam",
      "lat":16.075984,
      "lng":108.217823
   },
   {  
      "id":39,
      "name":"Bệnh viện C Đà Nẵng",
      "address":"122 Hải Phòng, Thạch Thang, Hải Châu, Đà Nẵng, Việt Nam",
      "lat":16.072341,
      "lng":108.216776
   },
   {  
      "id":40,
      "name":"Bệnh viện Đa khoa Vĩnh Toàn",
      "address":"49 Lê Duẩn, Hải Châu 1, Hải Châu, Da Nang, Việt Nam",
      "lat":16.070882,
      "lng":108.218141
   },
   {  
      "id":41,
      "name":"Trạm Y tế phường Hải Châu 1",
      "address":"239 Nguyễn Chí Thanh, Hải Châu 1, Hải Châu, Đà Nẵng, Việt Nam",
      "lat":16.065806,
      "lng":108.220833
   },
   {  
      "id":42,
      "name":"Trạm Y tế phường Phước Ninh",
      "address":"47 Hoàng Văn Thụ, Hải Châu, Q. Hải Châu, Đà Nẵng, Việt Nam",
      "lat":16.062950,
      "lng":108.221089
   },
   {  
      "id":43,
      "name":"Bệnh viện Đa khoa Gia Đình",
      "address":"73 Nguyễn Hữu Thọ, Hòa Thuận Tây, Hải Châu, Da Nang, Việt Nam",
      "lat":16.053926,
      "lng":108.209134
   },
   {  
      "id":44,
      "name":"Phòng khám Gia Đình",
      "address":"96-98 Nguyễn Văn Linh, Hải Châu, Đà Nẵng, Việt Nam",
      "lat":16.060691,
      "lng":108.215055
   },
   {  
      "id":45,
      "name":"Phòng Khám Đa Khoa Phước An",
      "address":"104, Hoàng Văn Thụ, Phước Ninh, Hải Châu, Đà Nẵng, Việt Nam",
      "lat":16.063104,
      "lng":108.218102
   },
   {  
      "id":46,
      "name":"Bệnh viện Chỉnh hình và Phục hồi chức năng",
      "address":"95 Quang Trung, Thạch Thang, Q. Hải Châu, Đà Nẵng, Việt Nam",
      "lat":16.073682,
      "lng":108.217351
   },
   {  
      "id":47,
      "name":"Trạm Y Tế Phường An Hải Bắc",
      "address":"16 Nguyễn Trung Trực, An Hải Bắc, Sơn Trà, Đà Nẵng, Việt Nam",
      "lat":16.079678,
      "lng":108.231717
   },
   {  
      "id":48,
      "name":"Trạm Y Tế Phường Phước Mỹ",
      "address":"255 Nguyễn Công Trứ, Phước Mỹ, Sơn Trà, Đà Nẵng, Việt Nam",
      "lat":16.065413,
      "lng":108.240665
   },
   {  
      "id":49,
      "name":"Trạm Y tế phường Mân Thái",
      "address":"173 Ngô Quyền, Mân Thái, Sơn Trà, Đà Nẵng, Việt Nam",
      "lat":16.088958,
      "lng":108.242217
   },
   {  
      "id":50,
      "name":"Trạm Y Tế Phường Nại Hiên Đông",
      "address":"100 Nguyễn Trung Trực, Nại Hiên Đông, Sơn Trà, Đà Nẵng, Việt Nam",
      "lat":16.085976,
      "lng":108.229839
   },
   {  
      "id":51,
      "name":"Trạm Y Tế Phường Hòa Cường Bắc",
      "address":"44 Trần Văn Giáp, Hòa Cường Bắc, Hải Châu, Đà Nẵng, Việt Nam",
      "lat":16.037746,
      "lng":108.215506
   },
   {  
      "id":52,
      "name":"Trạm y tế phường Hòa Thuận Tây",
      "address":"Nguyễn Trác, Hòa Thuận Tây, Hải Châu, Đà Nẵng, Việt Nam",
      "lat":16.042243,
      "lng":108.209370
   },
   {  
      "id":53,
      "name":"Bệnh viện Đa Khoa Đà Nẵng",
      "address":"124 Hải Phòng, Thạch Thang, Hải Châu, Đà Nẵng, Việt Nam",
      "lat":16.072167,
      "lng":108.215565
   },
   {  
      "id":54,
      "name":"Trung tâm Chăm sóc Sức khỏe Sinh sản Tp Đà Nẵng",
      "address":"6 Phan Châu Trinh, Hải Châu 1, Hải Châu, Đà Nẵng, Việt Nam",
      "lat":16.069581,
      "lng":108.220295
   },
   {  
      "id":55,
      "name":"Trạm Y tế phường Bình Thuận",
      "address":"163 Trưng Nữ Vương, Hải Châu, Q. Hải Châu, Đà Nẵng, Việt Nam",
      "lat":16.055991,
      "lng":108.220271
   }
]