[  
   {  
      "id":1,
      "name":"Công An Phường Hòa Khánh Bắc",
      "address":"Lạc Long Quân, Hòa Khánh Bắc, Liên Chiểu, Đà Nẵng, Việt Nam",
      "lat":16.076421,
      "lng":108.145588
   },
   {  
      "id":2,
      "name":"Công An Quận Liên Chiểu",
      "address":"42 Ngô Thì Nhậm, Hòa Khánh Nam, Liên Chiểu, Đà Nẵng, Việt Nam",
      "lat":16.069970,
      "lng":108.153550
   },
   {  
      "id":3,
      "name":"Công An Phường Hoà Khánh Nam",
      "address":"Phạm Như Xương, Hòa Khánh Nam, Liên Chiểu, Đà Nẵng, Việt Nam",
      "lat":16.063706,
      "lng":108.154740
   },
   {  
      "id":4,
      "name":"Công an phường Hòa Minh",
      "address":"Tôn Đức Thắng, Hòa Minh, Liên Chiểu, Đà Nẵng, Việt Nam",
      "lat":16.058652,
      "lng":108.165519
   },
   {  
      "id":5,
      "name":"Công An Phường Thanh Khê Tây",
      "address":"4 Dũng Sĩ Thanh Khê, Thanh Lộc Đáng, Thanh Khê, Đà Nẵng, Việt Nam",
      "lat":16.067695,
      "lng":108.181965
   },
   {  
      "id":6,
      "name":"Công an Quận Thanh Khê",
      "address":"324 Hà Huy Tập, Thanh Khê, Đà Nẵng, Việt Nam",
      "lat":16.059541,
      "lng":108.186636
   },
   {  
      "id":7,
      "name":"Công An Phường An Khê",
      "address":"394 Hà Huy Tập, Hòa Khê, Đà Nẵng, An Khê Đà Nẵng, Việt Nam",
      "lat":16.059860,
      "lng":108.187503
   },
   {  
      "id":8,
      "name":"Công an phường Thạc Gián",
      "address":"86 Lý Thái Tổ, Thạc Gián, Thanh Khê, Đà Nẵng, Việt Nam",
      "lat":16.066390,
      "lng":108.207983
   },
   {  
      "id":9,
      "name":"Công an phường Tân Chính",
      "address":"Hải Phòng, Tân Chính, Thanh Khê, Đà Nẵng, Việt Nam",
      "lat":16.069669,
      "lng":108.209807
   },
   {  
      "id":10,
      "name":"Công an phường Vĩnh Trung",
      "address":"283 Hùng Vương, Thanh Khê, Đà Nẵng, Việt Nam",
      "lat":16.066807,
      "lng":108.212023
   },
   {  
      "id":11,
      "name":"Công an phường Hải Châu 1",
      "address":"87 Phan Châu Trinh, Hải Châu 1, Hải Châu, Đà Nẵng, Việt Nam",
      "lat":16.066919,
      "lng":108.220103
   },
   {  
      "id":12,
      "name":"Công An Phường Bình Hiên",
      "address":"Trưng Nữ Vương, Hải Châu, Đà Nẵng, Việt Nam",
      "lat":16.060156,
      "lng":108.222463
   },
   {  
      "id":13,
      "name":"Công An quận Hải Châu",
      "address":"16 Phan Đình Phùng, Hải Châu 1, Q. Hải Châu, Đà Nẵng, Việt Nam",
      "lat":16.070447,
      "lng":108.223057
   },
   {  
      "id":14,
      "name":"Công An Phường Nại Hiên Đông",
      "address":"Trần Hưng Đạo, Nại Hiên Đông, Sơn Trà, Đà Nẵng, Việt Nam",
      "lat":16.082983,
      "lng":108.229110
   },
   {  
      "id":15,
      "name":"Công An Phường An Hải Bắc",
      "address":"Nguyễn Trung Trực, An Hải Bắc, Sơn Trà, Đà Nẵng, Việt Nam",
      "lat":16.080503,
      "lng":108.231582
   },
   {  
      "id":16,
      "name":"Công an quận Sơn Trà",
      "address":"Nguyễn Công Trứ, An Hải Bắc, Sơn Trà, Đà Nẵng, Việt Nam",
      "lat":16.066800,
      "lng":108.236056
   },
   {  
      "id":17,
      "name":"Công An Phường Mỹ An",
      "address":"Ngũ Hành Sơn, Mỹ An, Ngũ Hành Sơn, Đà Nẵng, Việt Nam",
      "lat":16.040818,
      "lng":108.241534
   },
   {  
      "id":18,
      "name":"Công An Phường An Hải Đông",
      "address":"967 Ngô Quyền, An Hải Đông, Sơn Trà, Đà Nẵng, Việt Nam",
      "lat":16.062823,
      "lng":108.234141
   },
   {  
      "id":19,
      "name":"Công An Phường An Hải Tây",
      "address":"Lý Nam Đế, An Hải Tây, Sơn Trà, Đà Nẵng, Việt Nam",
      "lat":16.062195,
      "lng":108.233302
   },
   {  
      "id":20,
      "name":"Công An Phường Khuê Mỹ",
      "address":"K 20, Khuê Mỹ, Ngũ Hành Sơn, Đà Nẵng, Việt Nam",
      "lat":16.024226,
      "lng":108.248134
   },
   {  
      "id":21,
      "name":"Cảnh sát Giao thông Hòa Quý",
      "address":"Trần Đại Nghĩa, Hòa Hải, Ngũ Hành Sơn, Đà Nẵng, Việt Nam",
      "lat":15.988393,
      "lng":108.257029
   },
   {  
      "id":22,
      "name":"Công an phường Hòa Xuân",
      "address":"Hòa Xuân, Cẩm Lệ, Đà Nẵng, Việt Nam",
      "lat":15.995141,
      "lng":108.211640
   },
   {  
      "id":23,
      "name":"Công An Phường Hòa Thọ Đông",
      "address":"6 Nguyễn Nhàn, Hòa Thọ Đông, Cẩm Lệ, Đà Nẵng, Việt Nam",
      "lat":16.011561,
      "lng":108.197638
   },
   {  
      "id":24,
      "name":"Công an phường Hòa Phát",
      "address":"Hòa Phát, Cẩm Lệ, Đà Nẵng, Việt Nam",
      "lat":16.026375,
      "lng":108.187717
   },
   {  
      "id":25,
      "name":"Công an quận Cẩm Lệ",
      "address":"Cách Mạng Tháng 8, Hòa Thọ Đông, Cẩm Lệ, Đà Nẵng, Việt Nam",
      "lat":16.016993,
      "lng":108.203302
   },
   {  
      "id":26,
      "name":"Công an TP Đà Nẵng",
      "address":"80, Lê Lợi, Thạch Thang, Hải Châu, Da Nang, Việt Nam",
      "lat":16.077035,
      "lng":108.219581
   }
]